PROPERTY TYPE,ADDRESS,CITY,STATE OR PROVINCE,ZIP OR POSTAL CODE,PRICE,BEDS,BATHS,LOCATION,SQUARE FEET,LOT SIZE,YEAR BUILT,DAYS ON MARKET,$/SQUARE FEET,HOA/MONTH,LATITUDE,LONGITUDE,PRICE_BIN,PRICE_BIN_RANGE,PRICE_BIN_ALT,PRICE_BIN_ALT_RANGE
Condo/Co-op,650 Columbia Rd #1,Boston,MA,2125,445000,3.0,1.0,Dorchesters Uphams Corner,1297.0,22240.687812649434,1907.0,3,343.0,200.0,42.318819,-71.0637193,8,"(400000, 450000]",3,"(399900.0, 480000.0]"
Condo/Co-op,125 Hart St Unit 3B,Taunton,MA,2780,329900,3.0,1.5,Taunton,1600.0,26370.766144160018,2018.0,4,206.0,248.0,41.88428029999999,-71.06871770000001,6,"(300000, 350000]",2,"(319900.0, 399900.0]"
Single Family Residential,5 Federal St,Wilmington,MA,1887,599900,3.0,2.5,Wilmington,1964.0,17000.0,1960.0,4,305.0,0.0,42.5616425,-71.15815009999999,11,"(550000, 600000]",5,"(549900.0, 635980.0]"
Single Family Residential,10 Greenhouse Way,Randolph,MA,2368,589000,4.0,3.5,Randolph,2969.0,18416.0,2002.0,4,198.0,0.0,42.169827500000004,-71.06753540000001,11,"(550000, 600000]",5,"(549900.0, 635980.0]"
Single Family Residential,22 Temple St,Reading,MA,1867,759900,3.0,2.5,Reading,2470.0,7378.0,1916.0,4,308.0,0.0,42.5220593,-71.11340229999999,15,"(750000, 800000]",6,"(635980.0, 777000.0]"
Condo/Co-op,181 Warren Ave #4,Boston,MA,2116,679000,1.0,1.0,South End,613.0,613.0,1899.0,5,1108.0,276.0,42.3439271,-71.07660759999999,13,"(650000, 700000]",6,"(635980.0, 777000.0]"
Condo/Co-op,699 Hyde Park Ave #3,Boston,MA,2131,349900,2.0,1.0,Roslindale,743.0,743.0,1920.0,5,471.0,250.0,42.2764739,-71.1200428,6,"(300000, 350000]",2,"(319900.0, 399900.0]"
Condo/Co-op,20 Spring Garden St #1,Boston,MA,2125,574900,2.0,2.0,Dorchesters Savin Hill,1036.0,1036.0,1905.0,5,555.0,260.0,42.318031299999994,-71.0530663,11,"(550000, 600000]",5,"(549900.0, 635980.0]"
Condo/Co-op,7 Church St #3,Somerville,MA,2143,599000,2.0,1.0,Somerville,927.0,17197.357836877432,1900.0,5,646.0,195.0,42.3807417,-71.10079759999999,11,"(550000, 600000]",5,"(549900.0, 635980.0]"
Single Family Residential,134 Orvis Rd,Revere,MA,2151,469900,4.0,1.5,Revere,1080.0,4750.0,1950.0,5,435.0,0.0,42.4252695,-71.0137814,9,"(450000, 500000]",3,"(399900.0, 480000.0]"
Townhouse,21 Hall St #1,Waltham,MA,2453,749900,3.0,2.5,Waltham,2208.0,34658.18405029347,2015.0,5,340.0,200.0,42.370362899999996,-71.2349982,14,"(700000, 750000]",6,"(635980.0, 777000.0]"
Condo/Co-op,147 Hillside Rd #1,Watertown,MA,2472,524900,2.0,1.5,East Watertown,1258.0,5149.0,1920.0,5,417.0,113.0,42.375721,-71.1614498,10,"(500000, 550000]",4,"(480000.0, 549900.0]"
Single Family Residential,276 Ridge St,Millis,MA,2054,584900,3.0,2.0,Millis,2688.0,75794.0,1979.0,11,218.0,0.0,42.1922578,-71.37598929999999,11,"(550000, 600000]",5,"(549900.0, 635980.0]"
Single Family Residential,2 Farmstead Way,Littleton,MA,1460,619900,3.0,2.5,Littleton,2752.0,44867.0,1996.0,12,225.0,0.0,42.5484346,-71.4672493,12,"(600000, 650000]",5,"(549900.0, 635980.0]"
Single Family Residential,37 Myrtle St,Millis,MA,2054,539000,3.0,1.5,Rockville,1469.0,101930.0,1970.0,18,367.0,0.0,42.1338144,-71.36184240000001,10,"(500000, 550000]",4,"(480000.0, 549900.0]"
Single Family Residential,18 Coolidge St,Tewksbury,MA,1876,609900,3.0,2.5,Tewksbury,1608.0,4375.0,2019.0,26,379.0,0.0,42.5755491,-71.2147098,12,"(600000, 650000]",5,"(549900.0, 635980.0]"
Single Family Residential,262 Glen Rd,Weston,MA,2493,1365000,4.0,5.0,Weston,3897.0,20099.0,1915.0,46,350.0,0.0,42.325586,-71.286023,27,"(1350000, 1400000]",8,"(1099960.0, 1582000.0]"
Condo/Co-op,999 Hancock St #308,Quincy,MA,2169,429900,1.0,1.0,Quincy Center,749.0,14771.107199884413,2017.0,67,574.0,233.0,42.2575886,-71.00869449999999,8,"(400000, 450000]",3,"(399900.0, 480000.0]"
Single Family Residential,260 Ridge St,Millis,MA,2054,649000,4.0,3.5,Millis,3766.0,109771.0,1958.0,69,172.0,0.0,42.1903815,-71.3731363,12,"(600000, 650000]",6,"(635980.0, 777000.0]"
Single Family Residential,3 Kevin Cir,Framingham,MA,1701,650000,5.0,2.5,Framingham,2888.0,62988.0,1970.0,81,225.0,0.0,42.3397112,-71.4556546,12,"(600000, 650000]",6,"(635980.0, 777000.0]"
Single Family Residential,8 Linden Rd,Sandwich,MA,2357,650000,4.0,3.0,East Sandwich,2632.0,39204.0,1969.0,96,247.0,57.0,42.063440899999996,-71.0824613,12,"(600000, 650000]",6,"(635980.0, 777000.0]"
Single Family Residential,255 N Washington St,North Attleboro,MA,2760,489999,4.0,3.5,North Attleboro,3154.0,11565.0,1900.0,104,155.0,0.0,41.9895396,-71.33059420000001,9,"(450000, 500000]",4,"(480000.0, 549900.0]"
Townhouse,22 Beacon St #22,Shrewsbury,MA,1545,570000,4.0,2.5,Shrewsbury,2395.0,37207.11028129175,2017.0,124,238.0,0.0,42.281416799999995,-71.7321527,11,"(550000, 600000]",5,"(549900.0, 635980.0]"
Single Family Residential,7 Cedar Brook Rd,Wellesley,MA,2482,999000,4.0,2.5,Wellesley,2588.0,10001.0,1997.0,208,386.0,0.0,42.3066464,-71.3253979,19,"(950000, 1000000]",7,"(777000.0, 1099960.0]"
Single Family Residential,159 Linwood St,Lynn,MA,1905,429900,4.0,2.0,Lynn,1428.0,15007.0,1955.0,1,301.0,0.0,42.4745002,-70.9691455,8,"(400000, 450000]",3,"(399900.0, 480000.0]"
Single Family Residential,219 Oak St,Raynham,MA,2767,489900,4.0,2.5,Raynham,2544.0,71438.0,2005.0,1,193.0,0.0,41.9525058,-71.0672979,9,"(450000, 500000]",4,"(480000.0, 549900.0]"
Single Family Residential,75 Tanbark Rd,Sudbury,MA,1776,1199000,4.0,4.0,Sudbury,6561.0,42613.0,1995.0,1,183.0,0.0,42.3788303,-71.4514109,23,"(1150000, 1200000]",8,"(1099960.0, 1582000.0]"
Multi-Family (2-4 Unit),1092-1094 Main St,Waltham,MA,2453,869000,7.0,2.5,Cedarwood,2500.0,10890.0,1900.0,1,348.0,0.0,42.376237100000004,-71.2561819,17,"(850000, 900000]",7,"(777000.0, 1099960.0]"
Townhouse,114 Commonwealth Ave #3,Boston,MA,2116,1995000,2.0,2.0,Back Bay,1538.0,25525.667607679305,1880.0,1,1297.0,420.0,42.351849200000004,-71.0765273,39,"(1950000, 2000000]",9,"(1582000.0, 11000000.0]"
Single Family Residential,25 Skyview Ln,Sudbury,MA,1776,1650000,5.0,5.0,Sudbury,6414.0,58731.0,2001.0,1,257.0,0.0,42.422805600000004,-71.4043786,32,"(1600000, 1650000]",9,"(1582000.0, 11000000.0]"
Single Family Residential,6 Melina Rd,Newton,MA,2459,1888888,4.0,4.5,Newton,4083.0,15174.0,1967.0,1,463.0,0.0,42.311236799999996,-71.196488,37,"(1850000, 1900000]",9,"(1582000.0, 11000000.0]"
Single Family Residential,12 Dassance Dr,Foxboro,MA,2035,639900,4.0,2.5,Foxboro,2300.0,42614.0,1983.0,1,278.0,0.0,42.0539109,-71.19623270000001,12,"(600000, 650000]",6,"(635980.0, 777000.0]"
Multi-Family (2-4 Unit),17 Forrest St,Winthrop,MA,2152,599000,4.0,2.0,Winthrop,2083.0,3194.0,1900.0,1,288.0,0.0,42.375434999999996,-70.97253549999999,11,"(550000, 600000]",5,"(549900.0, 635980.0]"
Condo/Co-op,31 Church Grn #102,Taunton,MA,2780,179900,1.0,1.0,Taunton,782.0,15220.91771123705,1985.0,1,230.0,333.0,41.9026329,-71.0871879,3,"(150000, 200000]",0,"(49899.999, 255980.0]"
Single Family Residential,37 Walnut St,Millis,MA,2054,428000,3.0,2.0,Millis,1688.0,18295.0,1960.0,1,254.0,0.0,42.1880909,-71.38037309999999,8,"(400000, 450000]",3,"(399900.0, 480000.0]"
Single Family Residential,lot 2 Granite Ave,Raynham,MA,2767,710000,3.0,2.5,Raynham,2500.0,58625.0,2020.0,1,284.0,0.0,41.942719399999994,-71.06166230000001,14,"(700000, 750000]",6,"(635980.0, 777000.0]"
Single Family Residential,58 Welch Rd,Brookline,MA,2445,3799000,9.0,6.0,Brookline,8790.0,33145.0,1903.0,1,432.0,0.0,42.326426500000004,-71.1313438,75,"(3750000, 3800000]",9,"(1582000.0, 11000000.0]"
Single Family Residential,167 S Franklin St,Holbrook,MA,2343,229900,3.0,1.0,Holbrook,1528.0,5400.0,1963.0,1,150.0,0.0,42.150151799999996,-71.0082732,4,"(200000, 250000]",0,"(49899.999, 255980.0]"
Single Family Residential,335 Chestnut St,Wilmington,MA,1887,869900,4.0,2.5,Wilmington,3000.0,93977.0,2019.0,1,290.0,0.0,42.5232974,-71.17120440000001,17,"(850000, 900000]",7,"(777000.0, 1099960.0]"
Single Family Residential,15 Fenton Dr,Worcester,MA,1602,264900,3.0,1.5,Worcester,1536.0,4638.0,2004.0,1,172.0,0.0,42.28038660000001,-71.84576779999999,5,"(250000, 300000]",1,"(255980.0, 319900.0]"
Condo/Co-op,35 Granite St #2,Cambridge,MA,2139,505000,1.0,1.0,Cambridgeport,497.0,11336.190567736994,1886.0,1,1016.0,125.0,42.356385700000004,-71.112282,10,"(500000, 550000]",4,"(480000.0, 549900.0]"
Single Family Residential,99 Leedham St,Attleboro,MA,2703,349000,3.0,2.0,Attleboro,1144.0,12092.0,1998.0,1,305.0,0.0,41.9040213,-71.3792597,6,"(300000, 350000]",2,"(319900.0, 399900.0]"
Condo/Co-op,135 Seaport Blvd #1018,Boston,MA,2210,819700,0.0,1.0,Seaport District,520.0,11649.694863528228,2020.0,1,1576.0,532.0,42.3509604,-71.04390129999999,16,"(800000, 850000]",7,"(777000.0, 1099960.0]"
Single Family Residential,12 Fox Run,Brookfield,MA,1506,119000,3.0,2.0,Brookfield Meadows,1250.0,21780.0,1992.0,1,95.0,430.0,42.1887353,-72.1348878,2,"(100000, 150000]",0,"(49899.999, 255980.0]"
Condo/Co-op,133 Seaport Blvd #720,Boston,MA,2210,1938600,2.0,2.5,Seaport District,1255.0,21668.20170729153,2019.0,1,1545.0,1348.0,42.3504935,-71.0434498,38,"(1900000, 1950000]",9,"(1582000.0, 11000000.0]"
Condo/Co-op,133 Seaport Blvd #1815,Boston,MA,2210,1200000,1.0,1.0,Seaport District,800.0,15466.26889924758,2019.0,1,1500.0,816.0,42.3504935,-71.0434498,23,"(1150000, 1200000]",8,"(1099960.0, 1582000.0]"
Condo/Co-op,176-178 HYDE PARK Ave #2,Boston,MA,2130,418900,2.0,1.0,Jamaica Plains Forest Hills,900.0,871.0,1899.0,1,465.0,330.0,42.2949174,-71.116484,8,"(400000, 450000]",3,"(399900.0, 480000.0]"
Single Family Residential,235 Pleasant St,Paxton,MA,1612,314000,4.0,1.5,Paxton,2047.0,165415.0,1929.0,1,153.0,0.0,42.289969,-71.8992153,6,"(300000, 350000]",1,"(255980.0, 319900.0]"
Single Family Residential,1 & 11 Kenilworth Rd,Wellesley,MA,2482,11000000,7.0,8.5,Wellesley,10099.0,67082.0,2020.0,1,1089.0,0.0,42.283963,-71.28701099999999,219,"(10950000, 11000000]",9,"(1582000.0, 11000000.0]"
Single Family Residential,1 Minuteman Ln,Oxford,MA,1540,265000,3.0,2.5,Oxford,2688.0,57499.0,2003.0,1,99.0,0.0,42.1185382,-71.8690612,5,"(250000, 300000]",1,"(255980.0, 319900.0]"
Condo/Co-op,30 Abbey Rd #103,Leominster,MA,1453,111111,2.0,1.5,Leominster,948.0,17483.60088955638,1988.0,1,117.0,175.0,42.5063991,-71.7476884,2,"(100000, 150000]",0,"(49899.999, 255980.0]"
Single Family Residential,271 W Princeton Rd Lot 2,Westminster,MA,1473,525000,3.0,2.0,Westminster,1800.0,278304.0,2020.0,1,292.0,0.0,42.4985956,-71.909064,10,"(500000, 550000]",4,"(480000.0, 549900.0]"
Multi-Family (2-4 Unit),28 Orne St,North Attleboro,MA,2760,409900,5.0,4.5,North Attleboro,2481.0,5653.0,1920.0,1,165.0,0.0,41.9832575,-71.3310582,8,"(400000, 450000]",3,"(399900.0, 480000.0]"
Condo/Co-op,175 Tyson Commons Ln #175,Braintree,MA,2184,349900,2.0,2.0,Braintree,965.0,17715.321456010774,1989.0,1,363.0,382.0,42.173769899999996,-70.982113,6,"(300000, 350000]",2,"(319900.0, 399900.0]"
Townhouse,10 Locust Ln Unit E,Watertown,MA,2472,619900,3.0,2.5,Watertown,1724.0,28060.963217121447,1989.0,1,360.0,382.0,42.374427000000004,-71.194827,12,"(600000, 650000]",5,"(549900.0, 635980.0]"
Townhouse,81 Bishops Forest Dr #81,Waltham,MA,2452,589900,2.0,3.5,Waltham,2251.0,35244.300777207514,1988.0,1,262.0,560.0,42.3992139,-71.2304272,11,"(550000, 600000]",5,"(549900.0, 635980.0]"
Condo/Co-op,229 Vernon St #3,Worcester,MA,1607,104900,2.0,1.0,Worcester,728.0,14484.86414720546,1986.0,1,144.0,300.0,42.2392106,-71.79615009999999,2,"(100000, 150000]",0,"(49899.999, 255980.0]"
Single Family Residential,118 School St,Taunton,MA,2780,275000,4.0,1.5,Taunton,1625.0,7405.0,1900.0,1,169.0,0.0,41.9080412,-71.0901445,5,"(250000, 300000]",1,"(255980.0, 319900.0]"
Single Family Residential,60 Willow Ave,Winthrop,MA,2152,470000,3.0,1.0,Winthrop,1307.0,5100.0,1952.0,1,360.0,0.0,42.3745915,-70.97831690000001,9,"(450000, 500000]",3,"(399900.0, 480000.0]"
Townhouse,168 Ayer Rd Unit G3,Shirley,MA,1464,149900,2.0,1.5,Shirley,1256.0,21681.83232884767,1985.0,1,119.0,273.0,42.549322100000005,-71.6341287,2,"(100000, 150000]",0,"(49899.999, 255980.0]"
Single Family Residential,100 Longmeadow Ave,Worcester,MA,1606,229900,3.0,2.0,Worcester,1543.0,9404.0,1930.0,1,149.0,0.0,42.303244,-71.7846167,4,"(200000, 250000]",0,"(49899.999, 255980.0]"
Mobile/Manufactured Home,305 Turnpike St #217,Easton,MA,2375,73900,2.0,1.0,Easton,980.0,17919.780779352877,1987.0,1,75.0,468.0,42.022889,-71.069625,1,"(50000, 100000]",0,"(49899.999, 255980.0]"
Single Family Residential,14 Rogers Cir,Devens,MA,1434,573450,3.0,2.5,Emerson Green,1930.0,7128.0,2021.0,1,297.0,95.0,42.5360141,-71.6139348,11,"(550000, 600000]",5,"(549900.0, 635980.0]"
Condo/Co-op,55 Commercial Wharf #6,Boston,MA,2110,1639000,2.0,2.0,Waterfront,1304.0,1304.0,1832.0,1,1257.0,874.0,42.3616464,-71.0503209,32,"(1600000, 1650000]",9,"(1582000.0, 11000000.0]"
Single Family Residential,269 Clifton,Attleboro,MA,2703,345000,3.0,2.0,Attleboro,1558.0,18225.0,1945.0,1,221.0,0.0,41.9556929,-71.30911259999999,6,"(300000, 350000]",2,"(319900.0, 399900.0]"
Condo/Co-op,141 Dorchester Ave #910,Boston,MA,2127,1295000,2.0,2.5,South Boston,1886.0,1886.0,2007.0,1,687.0,1816.0,42.3419516,-71.0574969,25,"(1250000, 1300000]",8,"(1099960.0, 1582000.0]"
Single Family Residential,11 Key West Blvd,Rehoboth,MA,2769,769000,4.0,2.5,Cedar Hill Estates,3814.0,132422.0,2015.0,1,202.0,0.0,41.8172521,-71.2143097,15,"(750000, 800000]",6,"(635980.0, 777000.0]"
Single Family Residential,122 Farm St,Dover,MA,2030,2995000,4.0,6.0,Historic Farm St.,7895.0,227862.0,2014.0,1,379.0,0.0,42.227328299999996,-71.32523559999998,59,"(2950000, 3000000]",9,"(1582000.0, 11000000.0]"
Single Family Residential,108 Robincrest Ct,Seekonk,MA,2771,559000,3.0,2.0,Seekonk,2000.0,83635.0,2002.0,1,280.0,0.0,41.8768777,-71.3106437,11,"(550000, 600000]",5,"(549900.0, 635980.0]"
Condo/Co-op,253 Parkerville Rd #11,Southborough,MA,1772,679900,2.0,2.5,Southborough,2190.0,34412.83286228294,2019.0,1,310.0,345.0,42.266989,-71.536962,13,"(650000, 700000]",6,"(635980.0, 777000.0]"
Single Family Residential,1 South St,Upton,MA,1568,506900,4.0,3.0,Upton,3018.0,81222.0,1988.0,1,168.0,0.0,42.158057799999995,-71.60343449999999,10,"(500000, 550000]",4,"(480000.0, 549900.0]"
Single Family Residential,41 Mcandrew Rd,Braintree,MA,2184,529900,3.0,2.0,Braintree,1812.0,15002.0,1976.0,1,292.0,0.0,42.1816727,-70.98679150000001,10,"(500000, 550000]",4,"(480000.0, 549900.0]"
Condo/Co-op,253 Parkerville Rd #1,Southborough,MA,1772,649900,2.0,2.5,Southborough,2190.0,34412.83286228294,2020.0,1,297.0,345.0,42.266989,-71.536962,12,"(600000, 650000]",6,"(635980.0, 777000.0]"
Single Family Residential,28 Longfellow Rd,Wellesley,MA,2481,1375000,5.0,5.5,Wellesley,3926.0,20491.0,1898.0,1,350.0,0.0,42.3176792,-71.26274659999999,27,"(1350000, 1400000]",8,"(1099960.0, 1582000.0]"
Multi-Family (2-4 Unit),26-28 Hano St,Boston,MA,2134,895000,5.0,2.0,Allston,2102.0,1523.0,1890.0,1,426.0,0.0,42.355971999999994,-71.136914,17,"(850000, 900000]",7,"(777000.0, 1099960.0]"
Single Family Residential,193 Randolph St,Weymouth,MA,2190,375000,3.0,1.0,South Weymouth,1199.0,13939.0,1923.0,1,313.0,0.0,42.1699416,-70.9678917,7,"(350000, 400000]",2,"(319900.0, 399900.0]"
Single Family Residential,29 Elizabeth Ln,Peabody,MA,1960,485000,3.0,1.0,West Peabody,1352.0,15002.0,1960.0,1,359.0,0.0,42.5627478,-71.03220309999999,9,"(450000, 500000]",4,"(480000.0, 549900.0]"
Single Family Residential,543 Lexington St,Waltham,MA,2452,699900,3.0,1.5,Piety Corner,2142.0,6011.0,1935.0,1,327.0,0.0,42.3942954,-71.23673640000001,13,"(650000, 700000]",6,"(635980.0, 777000.0]"
Single Family Residential,181 Shining Rock Dr,Northbridge,MA,1534,849900,5.0,3.5,Shining Rock Golf Community,5300.0,29228.0,2005.0,1,160.0,0.0,42.1535937,-71.64272199999999,16,"(800000, 850000]",7,"(777000.0, 1099960.0]"
Townhouse,91 Clarendon Ave #2,Somerville,MA,2144,1325000,3.0,2.5,Davis Square,2026.0,32177.410927075893,2019.0,1,654.0,0.0,42.4011562,-71.13081,26,"(1300000, 1350000]",8,"(1099960.0, 1582000.0]"
Single Family Residential,738 N Cary St,Brockton,MA,2302,429900,5.0,2.5,Brockton,2046.0,31887.0,1925.0,1,210.0,0.0,42.1083361,-70.99906109999999,8,"(400000, 450000]",3,"(399900.0, 480000.0]"
Single Family Residential,180 Hayden Rowe St,Hopkinton,MA,1748,799900,4.0,4.0,Hayden Row,3200.0,40119.0,1800.0,1,250.0,0.0,42.206386,-71.5117592,15,"(750000, 800000]",7,"(777000.0, 1099960.0]"
Single Family Residential,46 Walnut Ter,Avon,MA,2322,369000,3.0,1.0,Avon,1408.0,11000.0,1955.0,1,262.0,0.0,42.126483,-71.0485,7,"(350000, 400000]",2,"(319900.0, 399900.0]"
Multi-Family (2-4 Unit),31 Mulberry St,Attleboro,MA,2703,289900,4.0,2.0,Attleboro,2270.0,10000.0,1900.0,1,128.0,0.0,41.934759,-71.28190699999999,5,"(250000, 300000]",1,"(255980.0, 319900.0]"
Single Family Residential,226 Blue Hill Ave,Milton,MA,2186,475000,4.0,1.5,Milton,1450.0,4861.0,1929.0,1,328.0,0.0,42.2576054,-71.0979437,9,"(450000, 500000]",3,"(399900.0, 480000.0]"
Single Family Residential,558 Pleasant St,Franklin,MA,2038,399900,3.0,1.5,Franklin,1661.0,20399.0,1957.0,1,241.0,0.0,42.1013229,-71.3791206,7,"(350000, 400000]",2,"(319900.0, 399900.0]"
Condo/Co-op,200 Martins Lndg #411,North Reading,MA,1864,474999,2.0,2.0,North Reading,1326.0,22635.97583777751,2018.0,1,358.0,345.0,42.573,-71.1292,9,"(450000, 500000]",3,"(399900.0, 480000.0]"
Condo/Co-op,8 Sanborn St #4010,Reading,MA,1867,679900,2.0,2.0,Reading,1055.0,18942.077396063418,2020.0,1,644.0,275.0,42.5237415,-71.1044207,13,"(650000, 700000]",6,"(635980.0, 777000.0]"
Single Family Residential,13 Clarendon Rd,Auburn,MA,1501,109900,2.0,1.0,Pakachoag Hill,891.0,8202.0,1940.0,1,123.0,0.0,42.2154666,-71.82477440000001,2,"(100000, 150000]",0,"(49899.999, 255980.0]"
Single Family Residential,29 Avon Pl,Arlington,MA,2474,1200000,4.0,2.0,Arlington Center,2028.0,6762.0,1865.0,1,592.0,0.0,42.4123062,-71.15100190000001,23,"(1150000, 1200000]",8,"(1099960.0, 1582000.0]"
Condo/Co-op,306 Commonwealth Ave #5,Boston,MA,2116,1399000,2.0,1.5,Back Bay,1088.0,19391.887907416058,1886.0,1,1286.0,612.0,42.3494355,-71.0854927,27,"(1350000, 1400000]",8,"(1099960.0, 1582000.0]"
Condo/Co-op,201 W Brookline St #204,Boston,MA,2118,4050000,3.0,3.5,South End,2756.0,42127.76466305849,2018.0,1,1470.0,1183.0,42.3435255,-71.0764028,80,"(4000000, 4050000]",9,"(1582000.0, 11000000.0]"
Townhouse,321 Bishops Forest Dr #321,Waltham,MA,2452,639900,2.0,2.5,Waltham,2010.0,31959.320982177644,1989.0,1,318.0,499.0,42.3996758,-71.22636390000001,12,"(600000, 650000]",6,"(635980.0, 777000.0]"
Single Family Residential,159 W 8th St,Boston,MA,2127,575000,2.0,1.5,South Boston,1148.0,1200.0,1900.0,1,501.0,0.0,42.3342665,-71.0531422,11,"(550000, 600000]",5,"(549900.0, 635980.0]"
Multi-Family (5+ Unit),305-309 Highland Ave,Somerville,MA,2144,4999900,17.0,9.0,Somerville,1250.0,21600.04859951083,1963.0,1,4000.0,0.0,42.392887200000004,-71.11340229999999,99,"(4950000, 5000000]",9,"(1582000.0, 11000000.0]"
Single Family Residential,9 Middle St,Taunton,MA,2780,314900,3.0,1.0,Taunton,1092.0,18295.0,1962.0,1,288.0,0.0,41.990908000000005,-71.167542,6,"(300000, 350000]",1,"(255980.0, 319900.0]"
Single Family Residential,21 Serenity Dr,Uxbridge,MA,1569,584900,3.0,2.0,Uxbridge,2000.0,108900.0,2020.0,1,292.0,0.0,42.10265220000001,-71.61492779999999,11,"(550000, 600000]",5,"(549900.0, 635980.0]"
Single Family Residential,48 Ettrick St,Brockton,MA,2301,329900,3.0,2.0,Kennedy School,1598.0,8220.0,1960.0,1,206.0,0.0,42.0673719,-71.0341068,6,"(300000, 350000]",2,"(319900.0, 399900.0]"
Single Family Residential,115 Kensington St,Braintree,MA,2184,649800,3.0,2.0,Braintree,1812.0,15046.0,1976.0,1,359.0,0.0,42.209511799999994,-70.9906921,12,"(600000, 650000]",6,"(635980.0, 777000.0]"
Condo/Co-op,176 Maple Ave Unit 3-2,Rutland,MA,1543,99900,2.0,1.0,Rutland,720.0,14375.819174756336,1972.0,1,139.0,275.0,42.3582459,-71.9429697,1,"(50000, 100000]",0,"(49899.999, 255980.0]"
Single Family Residential,15 VINEDALE Rd,Brockton,MA,2301,399900,2.0,2.0,Brockton,1678.0,10467.0,1976.0,1,238.0,0.0,42.0892243,-71.075451,7,"(350000, 400000]",2,"(319900.0, 399900.0]"
Single Family Residential,4 Clark St,Holden,MA,1520,269900,2.0,1.0,Holden,1126.0,19166.0,1957.0,1,240.0,0.0,42.3594653,-71.8597623,5,"(250000, 300000]",1,"(255980.0, 319900.0]"
Single Family Residential,34 River Rd,Taunton,MA,2780,350000,3.0,1.0,Taunton,1224.0,17424.0,1963.0,1,286.0,0.0,41.9065848,-71.0708316,6,"(300000, 350000]",2,"(319900.0, 399900.0]"
Single Family Residential,90 Hillside Rd,Braintree,MA,2184,480000,2.0,2.0,East Braintree,1200.0,16220.0,1973.0,1,400.0,0.0,42.2193114,-70.9866522,9,"(450000, 500000]",3,"(399900.0, 480000.0]"
Single Family Residential,93 BYRON Rd,Weston,MA,2493,1675000,5.0,3.5,Weston,4000.0,40883.0,1956.0,1,419.0,0.0,42.332908,-71.28189920000001,33,"(1650000, 1700000]",9,"(1582000.0, 11000000.0]"
Townhouse,124 Milton St #2,Dedham,MA,2026,635000,3.0,2.5,Dedham,2300.0,9550.0,2019.0,1,276.0,200.0,42.2444367,-71.1506306,12,"(600000, 650000]",5,"(549900.0, 635980.0]"
Townhouse,122 Milton St #1,Dedham,MA,2026,635000,3.0,2.5,Dedham,2300.0,9550.0,2019.0,1,276.0,200.0,42.2444394,-71.1506604,12,"(600000, 650000]",5,"(549900.0, 635980.0]"
Single Family Residential,247 SWANTON St,Winchester,MA,1890,649999,3.0,1.0,POTENTIALLY could be numbered as 5 WHITE STREET,1582.0,8427.0,1880.0,1,411.0,0.0,42.4617788,-71.1404187,12,"(600000, 650000]",6,"(635980.0, 777000.0]"
Single Family Residential,50 Harlan Dr,Brockton,MA,2301,435000,4.0,2.5,Brockton,1666.0,10968.0,1955.0,1,261.0,0.0,42.066229299999996,-71.0354997,8,"(400000, 450000]",3,"(399900.0, 480000.0]"
Single Family Residential,840 Newton St,Brookline,MA,2467,1999000,5.0,6.0,Chestnut Hill,4677.0,15996.0,2000.0,1,427.0,42.0,42.30775560000001,-71.1685651,39,"(1950000, 2000000]",9,"(1582000.0, 11000000.0]"
Single Family Residential,30 Greenwood Rd,Brockton,MA,2301,479900,4.0,3.0,Brockton,2572.0,12118.0,2020.0,1,187.0,0.0,42.0573385,-71.0143219,9,"(450000, 500000]",3,"(399900.0, 480000.0]"
Multi-Family (2-4 Unit),138 Forest Ave,Brockton,MA,2301,559900,4.0,2.0,Brockton,2089.0,6652.0,1924.0,1,268.0,0.0,42.071905799999996,-71.0250528,11,"(550000, 600000]",5,"(549900.0, 635980.0]"
Single Family Residential,28 Donna Rd,Chelmsford,MA,1824,825900,4.0,3.0,Chelmsford,3800.0,30846.0,2017.0,1,217.0,0.0,42.5698843,-71.3409867,16,"(800000, 850000]",7,"(777000.0, 1099960.0]"
Single Family Residential,34 Upland St,Auburn,MA,1501,318000,2.0,2.0,Pakachoag/Golf Course,1176.0,16820.0,1954.0,1,270.0,0.0,42.2224566,-71.8106902,6,"(300000, 350000]",1,"(255980.0, 319900.0]"
Single Family Residential,44 Otis St,Mansfield,MA,2048,529900,4.0,3.0,Mansfield,3522.0,17860.0,1983.0,1,150.0,0.0,41.996777200000004,-71.2460989,10,"(500000, 550000]",4,"(480000.0, 549900.0]"
Condo/Co-op,6 Daania Dr #9,Westborough,MA,1581,549900,2.0,2.5,Westborough,1718.0,27979.179487784604,2020.0,1,320.0,200.0,42.2706467,-71.6562893,10,"(500000, 550000]",4,"(480000.0, 549900.0]"
Townhouse,20 Ship Ave #10,Medford,MA,2155,519000,2.0,2.0,Medford,1193.0,20823.103170810817,1987.0,1,435.0,342.0,42.4133563,-71.099811,10,"(500000, 550000]",4,"(480000.0, 549900.0]"
Condo/Co-op,45 Lewis St Ph 18,Boston,MA,2128,1049000,2.0,2.0,East Boston,1092.0,19446.41039364062,2020.0,1,961.0,792.0,42.367359,-71.0418243,20,"(1000000, 1050000]",7,"(777000.0, 1099960.0]"
Condo/Co-op,3 Daania Dr #7,Westborough,MA,1581,549900,2.0,2.5,Westborough,1718.0,27979.179487784604,2020.0,1,320.0,200.0,42.2706467,-71.6562893,10,"(500000, 550000]",4,"(480000.0, 549900.0]"
Condo/Co-op,15 Staples Ave #37,Everett,MA,2149,289900,2.0,1.0,Everett,722.0,14403.080417868618,1960.0,1,402.0,311.0,42.414376399999995,-71.05538940000001,5,"(250000, 300000]",1,"(255980.0, 319900.0]"
Townhouse,Lot 41 Plymouth St Unit B,Canton,MA,2021,535000,3.0,2.0,Canton,1900.0,13983.0,2019.0,1,282.0,175.0,42.1540951,-71.148449,10,"(500000, 550000]",4,"(480000.0, 549900.0]"
Single Family Residential,114 Jaques St,Somerville,MA,2145,1000000,5.0,2.5,Somerville,2100.0,2683.0,1900.0,1,476.0,0.0,42.395575799999996,-71.0947869,19,"(950000, 1000000]",7,"(777000.0, 1099960.0]"
Single Family Residential,9 Connors Cir,Randolph,MA,2368,349000,3.0,1.5,Randolph,1364.0,23153.939456910848,1985.0,1,256.0,0.0,42.1635084,-71.0272815,6,"(300000, 350000]",2,"(319900.0, 399900.0]"
Condo/Co-op,160 Cottage St #001,Boston,MA,2128,384900,2.0,1.0,East Bostons Jeffries Point,624.0,13067.279505366843,1905.0,1,617.0,207.0,42.369969399999995,-71.0331449,7,"(350000, 400000]",2,"(319900.0, 399900.0]"
Single Family Residential,1068 MAIN St,Walpole,MA,2081,675000,3.0,2.5,Prime in-town location,2505.0,16988.0,1949.0,1,269.0,0.0,42.1427396,-71.2548695,13,"(650000, 700000]",6,"(635980.0, 777000.0]"
Single Family Residential,35 Woodlot Dr Lot 16,Milton,MA,2186,1608765,4.0,3.5,Milton Woods,5714.0,24829.0,2020.0,1,282.0,205.0,42.240229799999994,-71.0897371,32,"(1600000, 1650000]",9,"(1582000.0, 11000000.0]"
Condo/Co-op,9 Medford St Ph 10,Somerville,MA,2143,1100000,2.0,2.0,Somerville,1189.0,20768.580684586253,1916.0,1,925.0,874.0,42.3742011,-71.08682519999999,21,"(1050000, 1100000]",8,"(1099960.0, 1582000.0]"
Single Family Residential,12 Morton Rd,Newton,MA,2459,1900000,3.0,3.5,Newton Center,3214.0,8523.0,1916.0,1,591.0,0.0,42.339116600000004,-71.2015932,37,"(1850000, 1900000]",9,"(1582000.0, 11000000.0]"
Single Family Residential,27 Galen St,Brockton,MA,2302,305000,3.0,1.0,Brockton,1032.0,6268.0,1925.0,1,296.0,0.0,42.0848149,-70.99362909999999,6,"(300000, 350000]",1,"(255980.0, 319900.0]"
Multi-Family (2-4 Unit),548 Fairmount St,Fitchburg,MA,1420,299900,6.0,2.0,Fitchburg,2625.0,15775.0,1880.0,1,114.0,0.0,42.5750044,-71.8320942,5,"(250000, 300000]",1,"(255980.0, 319900.0]"
Single Family Residential,40 Valley St,Blackstone,MA,1504,259900,2.0,1.0,Blackstone,1108.0,16117.0,1958.0,1,235.0,0.0,42.018772,-71.505565,5,"(250000, 300000]",1,"(255980.0, 319900.0]"
Mobile/Manufactured Home,252 newbury #112,Peabody,MA,1960,139900,2.0,1.0,Peabody,1030.0,18601.311857159904,1977.0,1,136.0,0.0,42.5514936,-70.9821227,2,"(100000, 150000]",0,"(49899.999, 255980.0]"
Single Family Residential,19 Myrtle St,Taunton,MA,2780,299000,3.0,1.5,Taunton,1225.0,14810.0,1995.0,1,244.0,0.0,41.8982437,-71.1022494,5,"(250000, 300000]",1,"(255980.0, 319900.0]"
Townhouse,16 Pemberton St Unit C,Walpole,MA,2081,229000,2.0,1.5,Walpole,1032.0,18628.573100272188,1985.0,1,222.0,100.0,42.153771,-71.248566,4,"(200000, 250000]",0,"(49899.999, 255980.0]"
Single Family Residential,24 Kingsbury St #1,Wellesley,MA,2481,1099900,4.0,2.5,Wellesley,3054.0,46189.68988678838,2006.0,1,360.0,250.0,42.3031745,-71.28786690000001,21,"(1050000, 1100000]",7,"(777000.0, 1099960.0]"
Single Family Residential,174 Highland St,Weston,MA,2493,7499000,6.0,7.5,Southside Estate Area,10002.0,130132.0,2000.0,1,750.0,0.0,42.3543701,-71.3191808,149,"(7450000, 7500000]",9,"(1582000.0, 11000000.0]"
Single Family Residential,46 Wells Park Rd,Sturbridge,MA,1566,349900,3.0,2.0,Sturbridge,1254.0,33541.0,1969.0,1,279.0,17.0,42.138435,-72.05466329999999,6,"(300000, 350000]",2,"(319900.0, 399900.0]"
Single Family Residential,61 Berlin St,Dedham,MA,2026,419900,3.0,1.0,Dedham,1056.0,7579.0,1959.0,2,398.0,0.0,42.2533154,-71.14923809999999,8,"(400000, 450000]",3,"(399900.0, 480000.0]"
Condo/Co-op,6 Millstone Dr #6,Medway,MA,2053,529900,3.0,2.5,Medway,2150.0,33867.60800003732,2015.0,2,246.0,310.0,42.1615551,-71.42853079999999,10,"(500000, 550000]",4,"(480000.0, 549900.0]"
Townhouse,21 Towle Dr #21,Holden,MA,1520,215000,3.0,1.5,Holden,1200.0,20918.517521703798,1990.0,2,179.0,228.0,42.342690000000005,-71.86155059999999,4,"(200000, 250000]",0,"(49899.999, 255980.0]"
Single Family Residential,233 Roosevelt,Fitchburg,MA,1420,387000,3.0,2.5,Fitchburg,1948.0,32920.0,2010.0,2,199.0,0.0,42.5703738,-71.8426777,7,"(350000, 400000]",2,"(319900.0, 399900.0]"
Multi-Family (2-4 Unit),739 Cummins Hwy,Boston,MA,2126,525000,4.0,2.0,Mattapan,2352.0,6050.0,1927.0,2,223.0,0.0,42.2702586,-71.101054,10,"(500000, 550000]",4,"(480000.0, 549900.0]"
Mobile/Manufactured Home,19 Second St,Sturbridge,MA,1566,49900,2.0,1.5,Sturbridge,1103.0,19596.34723075817,1981.0,2,45.0,312.0,42.0798241,-72.08519620000001,0,"(0, 50000]",0,"(49899.999, 255980.0]"
Single Family Residential,2 Rose Ln,Sharon,MA,2067,1095000,5.0,3.5,Sharon,3802.0,359220.0,1989.0,2,288.0,0.0,42.145846,-71.189013,21,"(1050000, 1100000]",7,"(777000.0, 1099960.0]"
Condo/Co-op,100 Lovejoy Wharf Unit 6C,Boston,MA,2114,1425000,2.0,2.0,Waterfront,1244.0,21518.264870173985,2017.0,2,1145.0,1264.0,42.3664934,-71.05989459999999,28,"(1400000, 1450000]",8,"(1099960.0, 1582000.0]"
Condo/Co-op,100 Lovejoy Wharf Ph 3E,Boston,MA,2114,2999000,3.0,3.0,Waterfront,1644.0,26970.5134926302,2017.0,2,1824.0,2130.0,42.3664934,-71.05989459999999,59,"(2950000, 3000000]",9,"(1582000.0, 11000000.0]"
Condo/Co-op,100 Lovejoy Wharf Ph 1A,Boston,MA,2114,1195000,1.0,1.5,Waterfront,1083.0,19323.734799635356,2017.0,2,1103.0,1156.0,42.3664934,-71.05989459999999,23,"(1150000, 1200000]",8,"(1099960.0, 1582000.0]"
Condo/Co-op,100 Lovejoy Wharf Unit 11D,Boston,MA,2114,2299000,3.0,3.0,Waterfront,1664.0,27243.125923753014,2017.0,2,1382.0,2008.0,42.3664934,-71.05989459999999,45,"(2250000, 2300000]",9,"(1582000.0, 11000000.0]"
Condo/Co-op,100 Lovejoy Wharf Unit 7P,Boston,MA,2114,1399000,2.0,2.0,Waterfront,1342.0,22854.065782675756,2017.0,2,1042.0,1417.0,42.3664934,-71.05989459999999,27,"(1350000, 1400000]",8,"(1099960.0, 1582000.0]"
Single Family Residential,18 Maravista Rd,Worcester,MA,1606,364900,2.0,2.0,Worcester,1092.0,6969.0,2019.0,2,334.0,0.0,42.3255201,-71.80696929999999,7,"(350000, 400000]",2,"(319900.0, 399900.0]"
Condo/Co-op,69 Foundry St #401,Wakefield,MA,1880,480000,2.0,2.0,Wakefield,994.0,18110.609481138847,2020.0,2,483.0,422.0,42.4990765,-71.0744761,9,"(450000, 500000]",3,"(399900.0, 480000.0]"
Condo/Co-op,69 Foundry St #410,Wakefield,MA,1880,485000,2.0,2.0,Wakefield,994.0,18110.609481138847,2020.0,2,488.0,426.0,42.4990765,-71.0744761,9,"(450000, 500000]",4,"(480000.0, 549900.0]"
Multi-Family (2-4 Unit),27 Dearborn Ave,Lynn,MA,1905,659900,6.0,3.0,Lynn,2721.0,4206.0,1900.0,2,243.0,0.0,42.458923399999996,-70.9785955,13,"(650000, 700000]",6,"(635980.0, 777000.0]"
Single Family Residential,171 Birchtree Dr,Westwood,MA,2090,889900,3.0,2.0,Westwood,1933.0,15080.0,1950.0,2,460.0,0.0,42.2295402,-71.2226865,17,"(850000, 900000]",7,"(777000.0, 1099960.0]"
Condo/Co-op,69 Foundry St #210,Wakefield,MA,1880,475000,2.0,2.0,Wakefield,994.0,18110.609481138847,2020.0,2,478.0,422.0,42.4990765,-71.0744761,9,"(450000, 500000]",3,"(399900.0, 480000.0]"
Condo/Co-op,69 Foundry St #214,Wakefield,MA,1880,480000,2.0,2.0,Wakefield,994.0,18110.609481138847,2020.0,2,483.0,422.0,42.4990765,-71.0744761,9,"(450000, 500000]",3,"(399900.0, 480000.0]"
Single Family Residential,420 Thicket St,Weymouth,MA,2190,479900,3.0,2.0,Weymouth,1092.0,15514.0,1958.0,2,439.0,0.0,42.1432188,-70.96951700000001,9,"(450000, 500000]",3,"(399900.0, 480000.0]"
Single Family Residential,46 Deer Run Cir,Barre,MA,1005,259900,3.0,2.0,Barre,1656.0,79204.0,1992.0,2,157.0,0.0,42.4320458,-72.0723787,5,"(250000, 300000]",1,"(255980.0, 319900.0]"
Single Family Residential,9 Glen Gery Rd,Shrewsbury,MA,1545,615000,4.0,2.5,Shrewsbury,2352.0,20790.0,1992.0,2,261.0,0.0,42.325282,-71.69918829999999,12,"(600000, 650000]",5,"(549900.0, 635980.0]"
Single Family Residential,50 Woodside Ave,Rutland,MA,1543,379900,3.0,2.5,Brice Estates,2248.0,15000.0,1963.0,2,169.0,0.0,42.378122399999995,-71.9792433,7,"(350000, 400000]",2,"(319900.0, 399900.0]"
Single Family Residential,138 Cherry St,Malden,MA,2148,498888,4.0,1.5,Forestdale,1573.0,4694.0,1967.0,2,317.0,0.0,42.438059100000004,-71.05305,9,"(450000, 500000]",4,"(480000.0, 549900.0]"
Single Family Residential,189 Kendall Rd,Holden,MA,1520,459900,3.0,2.5,Holden,3388.0,44792.0,1985.0,2,136.0,0.0,42.341032,-71.845274,9,"(450000, 500000]",3,"(399900.0, 480000.0]"
Condo/Co-op,171 Copperwood Dr #171,Stoughton,MA,2072,349900,2.0,2.5,Stoughton,2500.0,38638.325544686515,1986.0,2,140.0,368.0,42.1406537,-71.1367195,6,"(300000, 350000]",2,"(319900.0, 399900.0]"
Townhouse,57 Bellwood Cir #57,Bellingham,MA,2019,239900,2.0,1.5,Bellingham,1164.0,20427.81514568274,1987.0,2,206.0,379.0,42.083843,-71.480721,4,"(200000, 250000]",0,"(49899.999, 255980.0]"
Condo/Co-op,23 Rainbow Pond Dr Unit C2,Walpole,MA,2081,314900,2.0,2.0,Walpole,1167.0,20468.70701035116,1980.0,2,270.0,674.0,42.1458131,-71.2380905,6,"(300000, 350000]",1,"(255980.0, 319900.0]"
Single Family Residential,162 Green St,Shrewsbury,MA,1545,879800,4.0,2.5,Shrewsbury,3190.0,67082.0,2020.0,2,276.0,0.0,42.2619752,-71.6789219,17,"(850000, 900000]",7,"(777000.0, 1099960.0]"
Single Family Residential,43 Prospect St,Carlisle,MA,1741,1299000,4.0,4.5,Carlisle,4375.0,87555.0,2002.0,2,297.0,0.0,42.503122399999995,-71.3327516,25,"(1250000, 1300000]",8,"(1099960.0, 1582000.0]"
Single Family Residential,51 1/2 Old Shirley Rd,Harvard,MA,1451,789900,4.0,2.5,Harvard,3190.0,353707.0,2020.0,2,248.0,0.0,42.520755799999996,-71.5832675,15,"(750000, 800000]",7,"(777000.0, 1099960.0]"
Single Family Residential,523 Bedford St,Concord,MA,1742,1475000,4.0,2.5,Concord,3977.0,20871.0,2013.0,2,371.0,0.0,42.467726,-71.3319861,29,"(1450000, 1500000]",8,"(1099960.0, 1582000.0]"
Condo/Co-op,20 Church St #3,Braintree,MA,2184,319900,2.0,1.0,Braintree,935.0,99999.0,1969.0,2,342.0,398.0,42.2230852,-71.0014786,6,"(300000, 350000]",1,"(255980.0, 319900.0]"
Single Family Residential,3.1 Pinnacle Rd,Harvard,MA,1451,899900,4.0,4.0,Harvard,3768.0,77972.0,2020.0,2,239.0,0.0,42.5082492,-71.55967290000001,17,"(850000, 900000]",7,"(777000.0, 1099960.0]"
Condo/Co-op,660 E Seventh St #1,Boston,MA,2127,899000,3.0,3.0,South Boston,1660.0,2337.0,1900.0,2,542.0,0.0,42.3324914,-71.03372370000001,17,"(850000, 900000]",7,"(777000.0, 1099960.0]"
Single Family Residential,3 Blue Heron Way,Acton,MA,1720,699000,3.0,3.0,Acton,2435.0,37752.33514353738,1995.0,2,287.0,876.0,42.501191999999996,-71.411372,13,"(650000, 700000]",6,"(635980.0, 777000.0]"
Multi-Family (2-4 Unit),7-9 Falulah St,Fitchburg,MA,1420,149900,5.0,2.0,Fitchburg,2892.0,4490.0,1900.0,2,52.0,0.0,42.5642868,-71.7797093,2,"(100000, 150000]",0,"(49899.999, 255980.0]"
Single Family Residential,199 Dutton Rd,Sudbury,MA,1776,1295000,4.0,3.0,Sudbury,4794.0,400677.0,1931.0,2,270.0,0.0,42.3717404,-71.46956800000001,25,"(1250000, 1300000]",8,"(1099960.0, 1582000.0]"
Condo/Co-op,6 Wysocki Dr #27,Dudley,MA,1571,74900,1.0,1.0,Dudley,773.0,15098.242117231786,1970.0,2,97.0,213.0,42.05343679999999,-71.8870395,1,"(50000, 100000]",0,"(49899.999, 255980.0]"
Single Family Residential,352 Washington St,Taunton,MA,2780,299900,3.0,2.0,Taunton,1771.0,5227.0,1900.0,3,169.0,0.0,41.9228289,-71.0943125,5,"(250000, 300000]",1,"(255980.0, 319900.0]"
Multi-Family (2-4 Unit),41 Clinton St,Clinton,MA,1510,329900,6.0,2.0,Clinton,2340.0,3660.0,1900.0,3,141.0,0.0,42.412620200000006,-71.689183,6,"(300000, 350000]",2,"(319900.0, 399900.0]"
Single Family Residential,43 Cambridge St,Chelmsford,MA,1824,499900,4.0,1.5,South Chelmsford,1788.0,40600.0,1966.0,3,280.0,0.0,42.5647619,-71.3307798,9,"(450000, 500000]",4,"(480000.0, 549900.0]"
Single Family Residential,1106 Massachusetts Ave,Lexington,MA,2420,1949000,4.0,5.5,Lexington,4213.0,18531.0,1760.0,3,463.0,0.0,42.4350501,-71.21115379999999,38,"(1900000, 1950000]",9,"(1582000.0, 11000000.0]"
Single Family Residential,19 Greenwood Pl,Gardner,MA,1440,183900,3.0,1.0,Gardner,1206.0,5000.0,1910.0,3,152.0,0.0,42.566334000000005,-71.997058,3,"(150000, 200000]",0,"(49899.999, 255980.0]"
Multi-Family (2-4 Unit),80 Station St,Quincy,MA,2169,699900,6.0,2.0,Quincy,2776.0,5000.0,1880.0,3,252.0,0.0,42.2392716,-71.022824,13,"(650000, 700000]",6,"(635980.0, 777000.0]"
Townhouse,45 Mt Pleasant St #45,Cambridge,MA,2140,1985000,3.0,3.5,Avon Hill,2179.0,34262.89602516539,2019.0,3,911.0,275.0,42.3878693,-71.1253325,39,"(1950000, 2000000]",9,"(1582000.0, 11000000.0]"
Townhouse,2 SUNSET Way #2,Medfield,MA,2052,839000,3.0,2.5,Harding,2338.0,36430.16485259174,2019.0,3,359.0,400.0,42.1871281,-71.3041699,16,"(800000, 850000]",7,"(777000.0, 1099960.0]"
Single Family Residential,29 Boynton Rd,Templeton,MA,1468,265000,3.0,3.0,Templeton,2662.0,32670.0,1763.0,3,100.0,0.0,42.5579119,-72.0681345,5,"(250000, 300000]",1,"(255980.0, 319900.0]"
Single Family Residential,1 Old Barre Rd,Petersham,MA,1366,284900,3.0,2.0,Petersham,1850.0,69696.0,1890.0,3,154.0,0.0,42.4812658,-72.12773840000001,5,"(250000, 300000]",1,"(255980.0, 319900.0]"
Single Family Residential,22 Highfield Cir,Milton,MA,2186,889000,4.0,3.0,Milton,2719.0,4905.0,1952.0,3,327.0,0.0,42.257380299999994,-71.04868570000001,17,"(850000, 900000]",7,"(777000.0, 1099960.0]"
Single Family Residential,42 Halsey Rd,Boston,MA,2136,479900,3.0,2.0,Hyde Park,1008.0,5200.0,1950.0,3,476.0,0.0,42.242295,-71.1247406,9,"(450000, 500000]",3,"(399900.0, 480000.0]"
Single Family Residential,32 Woodsome Ave,Leominster,MA,1453,325000,3.0,1.5,Leominster,2046.0,21781.0,1941.0,3,159.0,0.0,42.5668047,-71.75513520000001,6,"(300000, 350000]",2,"(319900.0, 399900.0]"
Single Family Residential,26 Westchester Dr,Auburn,MA,1501,329900,4.0,2.0,Auburn,1500.0,11885.0,1971.0,3,220.0,0.0,42.193720299999995,-71.82828549999999,6,"(300000, 350000]",2,"(319900.0, 399900.0]"
Townhouse,303 Winchester St Unit C,Newton,MA,2461,899000,3.0,2.5,Newton Highlands,1965.0,31345.943012151318,1984.0,3,458.0,484.0,42.309984,-71.20808659999999,17,"(850000, 900000]",7,"(777000.0, 1099960.0]"
Single Family Residential,74 Pinedale Ave,Billerica,MA,1821,524900,3.0,1.5,Billerica,2058.0,21000.0,1968.0,3,255.0,0.0,42.532416,-71.2170478,10,"(500000, 550000]",4,"(480000.0, 549900.0]"
Condo/Co-op,65 Commercial Wharf Ph 4,Boston,MA,2110,3500000,3.0,3.0,Waterfront,2703.0,41405.34172058304,1875.0,3,1295.0,1722.0,42.3619901,-71.04989379999999,69,"(3450000, 3500000]",9,"(1582000.0, 11000000.0]"
Single Family Residential,344 Dedham St,Dover,MA,2030,1749000,4.0,2.0,Dover,2810.0,261360.0,1951.0,3,622.0,0.0,42.2577179,-71.23351600000001,34,"(1700000, 1750000]",9,"(1582000.0, 11000000.0]"
Single Family Residential,55 Farm Rd,Sherborn,MA,1770,1199000,4.0,4.0,Sherborn,5029.0,358499.0,1980.0,3,238.0,0.0,42.240159999999996,-71.359573,23,"(1150000, 1200000]",8,"(1099960.0, 1582000.0]"
Single Family Residential,301 Summer St,Weymouth,MA,2188,459900,3.0,1.0,Weymouth,1322.0,7494.0,1928.0,3,348.0,0.0,42.20364420000001,-70.9679846,9,"(450000, 500000]",3,"(399900.0, 480000.0]"
Single Family Residential,23 Heather Dr,Norwood,MA,2062,500000,3.0,2.0,Norwood,1500.0,21651.0,1967.0,3,333.0,0.0,42.1791523,-71.1753237,9,"(450000, 500000]",4,"(480000.0, 549900.0]"
Single Family Residential,27 Oldfield Dr,Sherborn,MA,1770,798000,4.0,2.5,Sherborn,3320.0,91476.0,1972.0,3,240.0,0.0,42.2474927,-71.39999509999998,15,"(750000, 800000]",7,"(777000.0, 1099960.0]"
Single Family Residential,20 Elliott Rd,Everett,MA,2149,539900,2.0,2.0,Everett,2100.0,4299.0,1955.0,3,257.0,0.0,42.418186799999994,-71.04673570000001,10,"(500000, 550000]",4,"(480000.0, 549900.0]"
Single Family Residential,34 Benham St,Brockton,MA,2302,375000,4.0,2.0,Brockton,2190.0,7593.0,1960.0,3,171.0,0.0,42.086807,-71.0031365,7,"(350000, 400000]",2,"(319900.0, 399900.0]"
Multi-Family (2-4 Unit),11 Avon Pl,Arlington,MA,2474,1100000,7.0,3.0,Arlington,4506.0,5210.0,1904.0,3,244.0,0.0,42.4130196,-71.1503985,21,"(1050000, 1100000]",8,"(1099960.0, 1582000.0]"
Single Family Residential,31 Hartford St,Dover,MA,2030,1849000,4.0,4.5,Dover,6813.0,40029.0,2007.0,3,271.0,0.0,42.211849799999996,-71.25814100000001,36,"(1800000, 1850000]",9,"(1582000.0, 11000000.0]"
Single Family Residential,222 Warren St,Brookline,MA,2445,8475000,8.0,7.5,Chestnut Hill,7000.0,80028.0,1848.0,3,1211.0,0.0,42.3209377,-71.13215059999999,169,"(8450000, 8500000]",9,"(1582000.0, 11000000.0]"
Single Family Residential,16 Worster,Medford,MA,2155,699900,3.0,2.5,Medford,2307.0,5528.0,1987.0,3,303.0,0.0,42.4292986,-71.0981294,13,"(650000, 700000]",6,"(635980.0, 777000.0]"
Townhouse,25 Jefferson Dr #25,Lexington,MA,2420,1325000,4.0,4.5,Lexington,3290.0,49406.516574037545,2020.0,3,403.0,452.0,42.487208,-71.24042890000001,26,"(1300000, 1350000]",8,"(1099960.0, 1582000.0]"
Single Family Residential,Lot 20 Autumn Dr,Westwood,MA,2090,1549000,4.0,3.5,Autumn Estates,4000.0,76230.0,2020.0,3,387.0,0.0,42.2024628,-71.2212246,30,"(1500000, 1550000]",8,"(1099960.0, 1582000.0]"
Condo/Co-op,59 Addington Rd #1,Brookline,MA,2445,1300000,2.0,2.5,Brookline,1393.0,23549.227482038925,1910.0,3,933.0,588.0,42.3358551,-71.135127,25,"(1250000, 1300000]",8,"(1099960.0, 1582000.0]"
Condo/Co-op,59 Addington Rd #2,Brookline,MA,2445,1350000,3.0,2.5,Brookline,1350.0,22963.110755124882,1910.0,3,1000.0,570.0,42.3358551,-71.135127,26,"(1300000, 1350000]",8,"(1099960.0, 1582000.0]"
Condo/Co-op,59 Addington Rd #3,Brookline,MA,2445,1450000,3.0,2.5,Brookline,1467.0,24557.893477193327,1910.0,3,988.0,620.0,42.3358551,-71.135127,28,"(1400000, 1450000]",8,"(1099960.0, 1582000.0]"
Condo/Co-op,59 Addington Rd #4,Brookline,MA,2445,1650000,3.0,2.5,Brookline,1716.0,27951.918244672324,1910.0,3,962.0,723.0,42.3358551,-71.135127,32,"(1600000, 1650000]",9,"(1582000.0, 11000000.0]"
Single Family Residential,384 Dudley Rd,Newton,MA,2459,1987400,5.0,4.5,Newton,4711.0,15211.0,2004.0,3,422.0,0.0,42.3086689,-71.18112540000001,39,"(1950000, 2000000]",9,"(1582000.0, 11000000.0]"
Single Family Residential,250 ANAWAN St,Rehoboth,MA,2769,295000,2.0,1.0,Rehoboth,1000.0,61307.0,1900.0,3,295.0,0.0,41.8728362,-71.2319449,5,"(250000, 300000]",1,"(255980.0, 319900.0]"
Townhouse,288 Main St #1,Acton,MA,1720,689900,3.0,3.5,Acton,2905.0,30056.0,2009.0,3,237.0,275.0,42.476144,-71.452832,13,"(650000, 700000]",6,"(635980.0, 777000.0]"
Single Family Residential,Lot 10 Foxhollow Rd,Hopkinton,MA,1748,1499000,5.0,4.5,Hopkinton,4349.0,38332.0,2020.0,3,345.0,0.0,42.213721899999996,-71.5868105,29,"(1450000, 1500000]",8,"(1099960.0, 1582000.0]"
Single Family Residential,33 Jerome St,Berkley,MA,2779,469900,4.0,2.5,Berkley,2776.0,43560.0,1988.0,3,169.0,0.0,41.8580289,-71.0698103,9,"(450000, 500000]",3,"(399900.0, 480000.0]"
Townhouse,93 Concord St Unit 93,Ashland,MA,1721,349900,3.0,1.5,Ashland,1875.0,18282.0,1970.0,3,187.0,0.0,42.261771,-71.461479,6,"(300000, 350000]",2,"(319900.0, 399900.0]"
Condo/Co-op,385 Main St #4,Woburn,MA,1801,299900,1.0,1.0,Woburn,750.0,14784.737821440553,1899.0,3,400.0,125.0,42.4799304,-71.1515125,5,"(250000, 300000]",1,"(255980.0, 319900.0]"
Condo/Co-op,385 Main St #2,Woburn,MA,1801,299900,1.0,1.0,Woburn,725.0,14443.972282537039,1899.0,3,414.0,125.0,42.4799304,-71.1515125,5,"(250000, 300000]",1,"(255980.0, 319900.0]"
Single Family Residential,115 Bogle St,Weston,MA,2493,1550000,4.0,3.5,Weston,3911.0,47264.0,1968.0,3,396.0,0.0,42.3222607,-71.32317090000001,30,"(1500000, 1550000]",8,"(1099960.0, 1582000.0]"
Single Family Residential,138 Waverly Ave,Melrose,MA,2176,699000,4.0,2.5,Mount Hood,3173.0,7812.0,1949.0,3,220.0,0.0,42.4574932,-71.046875,13,"(650000, 700000]",6,"(635980.0, 777000.0]"
Single Family Residential,16 Highland St,Spencer,MA,1562,85900,3.0,1.0,Spencer,1004.0,13931.0,1880.0,3,86.0,0.0,42.2491128,-71.9892432,1,"(50000, 100000]",0,"(49899.999, 255980.0]"
Single Family Residential,23 Peterson,Natick,MA,1760,599900,4.0,2.5,Peterson/Ingleside/Oak,1980.0,15072.0,1958.0,3,303.0,0.0,42.311389899999995,-71.3308262,11,"(550000, 600000]",5,"(549900.0, 635980.0]"
Single Family Residential,92 Lowther,Framingham,MA,1701,314900,3.0,1.0,Framingham,1360.0,9967.0,1956.0,3,232.0,0.0,42.3181334,-71.40579340000001,6,"(300000, 350000]",1,"(255980.0, 319900.0]"
Townhouse,14 Gates Rd Unit A,Worcester,MA,1603,250000,2.0,1.5,Worcester,2068.0,32749.897032433797,1987.0,3,121.0,0.0,42.2474352,-71.8450677,4,"(200000, 250000]",0,"(49899.999, 255980.0]"
Single Family Residential,796 Waverley St,Framingham,MA,1702,379900,4.0,2.0,Framingham,1258.0,9583.0,1864.0,3,302.0,0.0,42.272791299999994,-71.43125959999999,7,"(350000, 400000]",2,"(319900.0, 399900.0]"
Single Family Residential,102 Sears Rd,Wayland,MA,1778,1250000,5.0,3.5,Wayland,4068.0,89621.0,1960.0,3,307.0,0.0,42.3839433,-71.34360790000001,24,"(1200000, 1250000]",8,"(1099960.0, 1582000.0]"
Single Family Residential,46 Rutherford Ave,Boston,MA,2129,1459000,3.0,3.5,Charlestown,1656.0,1168.0,2012.0,3,881.0,0.0,42.3725011,-71.0642878,29,"(1450000, 1500000]",8,"(1099960.0, 1582000.0]"
Condo/Co-op,33 Pond Ave #305,Brookline,MA,2445,789000,2.0,2.0,Brookline Village,1260.0,21736.35481507223,1970.0,3,626.0,1065.0,42.3313518,-71.1140979,15,"(750000, 800000]",7,"(777000.0, 1099960.0]"
Single Family Residential,43 Creeper Hill Rd,Grafton,MA,1536,255000,3.0,2.0,Grafton,1338.0,38663.0,1987.0,3,191.0,0.0,42.240862899999996,-71.71820140000001,5,"(250000, 300000]",0,"(49899.999, 255980.0]"
Single Family Residential,225 Country Hill Dr,Dighton,MA,2764,629900,4.0,3.0,Dighton,3629.0,46609.0,1990.0,3,174.0,0.0,41.8470322,-71.1181373,12,"(600000, 650000]",5,"(549900.0, 635980.0]"
Condo/Co-op,16 Baldwin Dr #16,Sharon,MA,2067,645000,2.0,2.5,Sharon,2893.0,43995.15981624975,1997.0,3,223.0,871.0,42.140203,-71.178021,12,"(600000, 650000]",6,"(635980.0, 777000.0]"
Single Family Residential,680 N Main St,Mansfield,MA,2048,594000,4.0,2.5,Mansfield,2241.0,10045.0,2020.0,3,265.0,0.0,42.0412984,-71.21639470000001,11,"(550000, 600000]",5,"(549900.0, 635980.0]"
Condo/Co-op,102 Williams St #2,Boston,MA,2130,519000,2.0,1.0,Jamaica Plain,838.0,15984.23251838092,1905.0,3,619.0,121.0,42.305128,-71.1058231,10,"(500000, 550000]",4,"(480000.0, 549900.0]"
Single Family Residential,91 Dexter Rd,Melrose,MA,2176,525000,3.0,2.0,Melrose,1658.0,7060.0,1956.0,3,317.0,0.0,42.444721200000004,-71.03870340000002,10,"(500000, 550000]",4,"(480000.0, 549900.0]"
Townhouse,23 Cleary Cir #13,Norfolk,MA,2056,519900,2.0,2.5,Norfolk,1872.0,30078.29520743025,2020.0,3,278.0,200.0,42.1208961,-71.32305490000002,10,"(500000, 550000]",4,"(480000.0, 549900.0]"
Condo/Co-op,9 Independence Ave #302,Braintree,MA,2184,589000,2.0,2.0,Braintree,1352.0,22990.371998237162,2018.0,3,436.0,200.0,42.230569,-71.005622,11,"(550000, 600000]",5,"(549900.0, 635980.0]"
Townhouse,173 Main St #1,Maynard,MA,1754,439000,3.0,2.5,Maynard,2100.0,13000.0,2020.0,3,209.0,230.0,42.43091,-71.45970600000001,8,"(400000, 450000]",3,"(399900.0, 480000.0]"
Single Family Residential,281 Taylor Rd,Stow,MA,1775,849900,3.0,2.5,Stow,2875.0,277913.0,2004.0,3,296.0,0.0,42.4597978,-71.5227996,16,"(800000, 850000]",7,"(777000.0, 1099960.0]"
Single Family Residential,59 LIncoln St,Waltham,MA,2451,1590000,5.0,5.5,Piety Corner,7252.0,35676.0,1925.0,3,219.0,0.0,42.3931223,-71.23995009999999,31,"(1550000, 1600000]",9,"(1582000.0, 11000000.0]"
Single Family Residential,50 Garden Pkwy,Norwood,MA,2062,549900,3.0,2.0,Norwood,1738.0,12500.0,1960.0,3,316.0,0.0,42.175687599999996,-71.2287892,10,"(500000, 550000]",4,"(480000.0, 549900.0]"
Single Family Residential,50 Collins St,Attleboro,MA,2703,292500,2.0,1.5,Attleboro,1238.0,10000.0,1900.0,3,236.0,0.0,41.8982451,-71.36715190000001,5,"(250000, 300000]",1,"(255980.0, 319900.0]"
Condo/Co-op,9 Woodward Park St #1,Boston,MA,2125,565000,3.0,2.0,Boston,1732.0,4669.0,1905.0,3,326.0,0.0,42.3187125,-71.0724566,11,"(550000, 600000]",5,"(549900.0, 635980.0]"
Single Family Residential,25 McGregory Rd,Sturbridge,MA,1566,379900,4.0,2.0,Sturbridge,2770.0,31798.0,1956.0,3,137.0,0.0,42.0938984,-72.0632275,7,"(350000, 400000]",2,"(319900.0, 399900.0]"
Single Family Residential,11 Burditt Rd,North Reading,MA,1864,329900,2.0,1.0,North Reading,1072.0,12197.0,1951.0,3,308.0,0.0,42.566225200000005,-71.1103385,6,"(300000, 350000]",2,"(319900.0, 399900.0]"
Single Family Residential,44 Nevada Rd,Needham,MA,2494,2295000,6.0,6.0,Needham,5200.0,10019.0,2019.0,3,441.0,0.0,42.2937439,-71.22270970000001,45,"(2250000, 2300000]",9,"(1582000.0, 11000000.0]"
Multi-Family (2-4 Unit),243 Washington St,Reading,MA,1867,639900,4.0,3.0,Reading,2400.0,6820.0,1940.0,3,267.0,0.0,42.52117379999999,-71.0975723,12,"(600000, 650000]",6,"(635980.0, 777000.0]"
Single Family Residential,1114 West St,Wrentham,MA,2093,489000,3.0,2.5,Wrentham,1956.0,29185.0,1845.0,3,250.0,0.0,42.03373920000001,-71.39064809999999,9,"(450000, 500000]",4,"(480000.0, 549900.0]"
Condo/Co-op,27-1 Arlington Rd #3,Woburn,MA,1801,319900,2.0,1.0,Woburn,864.0,16338.628678840576,1965.0,3,370.0,397.0,42.475491600000005,-71.1562184,6,"(300000, 350000]",1,"(255980.0, 319900.0]"
Single Family Residential,7 CAPE CLUB Dr,Sharon,MA,2067,849000,2.0,2.5,The Cape Club of Sharon Golf Course,2800.0,42727.51201152868,2019.0,3,303.0,468.0,42.152608,-71.183219,16,"(800000, 850000]",7,"(777000.0, 1099960.0]"
Condo/Co-op,280 Boylston St #312,Newton,MA,2467,499000,1.0,1.5,Chestnut Hill,1060.0,19010.230503844123,1970.0,3,471.0,727.0,42.3187,-71.1786406,9,"(450000, 500000]",4,"(480000.0, 549900.0]"
Condo/Co-op,144 Hart St #36,Taunton,MA,2780,162900,2.0,1.0,Taunton,920.0,17101.943485984448,1987.0,3,177.0,425.0,41.8862549,-71.0653081,3,"(150000, 200000]",0,"(49899.999, 255980.0]"
Single Family Residential,23 Harrison Ave,Auburn,MA,1501,250000,3.0,2.0,Auburn,1350.0,13299.0,1986.0,3,185.0,0.0,42.204335799999996,-71.83135290000001,4,"(200000, 250000]",0,"(49899.999, 255980.0]"
Single Family Residential,373 Hartford Ave,Bellingham,MA,2019,400000,3.0,2.0,Plymouth Village,2041.0,12225.0,1964.0,3,196.0,0.0,42.124519,-71.4546343,7,"(350000, 400000]",3,"(399900.0, 480000.0]"
Single Family Residential,187 Washington St,Canton,MA,2021,459000,3.0,1.0,Canton,1224.0,9069.0,1952.0,3,375.0,0.0,42.1435801,-71.1488667,9,"(450000, 500000]",3,"(399900.0, 480000.0]"
Single Family Residential,28 MC KINLEY,Worcester,MA,1605,309900,3.0,2.0,Worcester,1600.0,3437.0,2020.0,3,194.0,0.0,42.282739899999996,-71.789211,6,"(300000, 350000]",1,"(255980.0, 319900.0]"
Multi-Family (2-4 Unit),43 - 45 Lincoln St,Watertown,MA,2472,1090000,7.0,3.0,Watertown,3014.0,9857.0,1910.0,3,362.0,0.0,42.367843,-71.1725852,21,"(1050000, 1100000]",7,"(777000.0, 1099960.0]"
Single Family Residential,25 Rocky Brook Rd,Dover,MA,2030,922500,4.0,3.0,Dover,3530.0,49136.0,1969.0,3,261.0,0.0,42.2235239,-71.2755654,18,"(900000, 950000]",7,"(777000.0, 1099960.0]"
